[{"address":"杭州市树人街18号","name":"浙大城市学院附属学校","lng":"120.158453","lat":"30.322633","code":"L000000500001"},{"address":"筹建中","name":"杭州市硅谷小学","lng":"120.181552","lat":"30.166335","code":"L000000201001"},{"address":"义蓬街道横一线与义府大街东北角处","name":"杭州市钱塘区崇德实验学校","lng":"120.498865","lat":"30.280363","code":"1111111111001"},{"address":"九堡街道锦蚕街（暂名）","name":"杭州市东城外国语实验学校","lng":"120.271618","lat":"30.319268","code":"L000000104001"},{"address":"上城区笕桥街道明石路与源聚路交叉口","name":"杭州市胜利实验笕成小学","lng":"120.236862","lat":"30.306834","code":"L000000103001"},{"address":"杭州市上城区渡口路188号","name":"杭州市天长观潮小学","lng":"120.238867","lat":"30.290675","code":"L000000101001"},{"address":"杭州市钱塘区水云街601号","name":"杭州市钱塘区文瀚学校","lng":"120.389476","lat":"30.335258","code":"2133001116001"},{"address":"杭州市钱塘区听涛路1号","name":"杭州市钱塘区闻潮学校","lng":"120.389452","lat":"30.300612","code":"2133006163001"},{"address":"杭州市钱塘区白杨街道集贤巷1号","name":"杭州养正学校（小学部）","lng":"120.380577","lat":"30.325205","code":"3133000609003"},{"address":"暂无","name":"杭州市江晖小学","lng":"120.218653","lat":"30.201723","code":"12345001"},{"address":"望江街道近江南路1号","name":"杭州市崇文小学","lng":"120.207589","lat":"30.237971","code":"12330102MB1G56027R001"},{"address":"丁兰街道三义路59号","name":"浙江师范大学附属丁蕙实验小学（临风书院）","lng":"120.238987","lat":"30.373514","code":"2133000858002"},{"address":"丁兰街道怀希路3号","name":"杭州市丁蕙第二小学（白鹤校区）","lng":"120.253751","lat":"30.370664","code":"2133001350002"},{"address":"紫阳街道南瓦坊12号","name":"杭州市凤凰小学（秋涛校区）","lng":"120.182428","lat":"30.227146","code":"2133001659002"},{"address":"杭州市西湖区枫桦支路水韵金沙公寓西北侧","name":"杭州市学军小学（云栖校区）","lng":"120.120803","lat":"30.1487","code":"2133003523004"},{"address":"杭州市西湖区三墩镇金庄路155号","name":"杭州市文理小学（杭州市文理第二小学）","lng":"120.082969","lat":"30.349879","code":"2133001969002"},{"address":"杭州市西湖区紫荆花路1号府苑新村","name":"杭州市文新小学（府苑校区）","lng":"120.099925","lat":"30.274512","code":"2133001287002"},{"address":"杭州市钱塘区风影街272号","name":"杭州钱塘新区凌云小学","lng":"120.393892","lat":"30.343873","code":"202120212021001"},{"address":"紫阳街道金狮苑20号","name":"杭州市蒋筑英学校","lng":"120.182281","lat":"30.241645","code":"2133000527001"},{"address":"杭州市西湖区三墩镇“云谷板块”灯彩街与荆大路交汇处西南角","name":"杭州云谷学校","lng":"120.03937","lat":"30.320963","code":"L000000024001"},{"address":"杭州市拱墅区新天地街499号","name":"杭州市安吉路教育集团新天地实验学校","lng":"120.184438","lat":"30.325751","code":"L000000023001"},{"address":"紫阳街道甬江路235号","name":"杭州市钱学森学校","lng":"120.188273","lat":"30.2349","code":"3133000844001"},{"address":"杭州市拱墅区桃源街603号","name":"杭州市桃源小学","lng":"120.173175","lat":"30.355931","code":"2133002395001"},{"address":"小营街道大学路新村54号","name":"杭州市大学路小学","lng":"120.190513","lat":"30.257992","code":"2133000521001"},{"address":"采荷街道采菱路42号","name":"杭州市采荷第一小学（杭州采荷第一小学教育集团）（双菱校区）","lng":"120.199789","lat":"30.259948","code":"2133006266002"},{"address":"紫阳街道姚江路5号","name":"杭州娃哈哈双语学校","lng":"120.188643","lat":"30.225159","code":"3433000325001"},{"address":"笕桥街道全福桥路519号","name":"杭州市笕弘实验学校","lng":"120.204341","lat":"30.309551","code":"3133000829001"},{"address":"滨江区长河街道冠山社区","name":"浙江省杭州湖畔学校","lng":"120.200112","lat":"30.155776","code":"3133000827001"},{"address":"上城区九堡街道三胜街409号","name":"杭州市东润外国语学校","lng":"120.28203","lat":"30.340634","code":"3133000825001"},{"address":"浙江省杭州市滨江区启智街516号（月明校区）  杭州滨江区滨和路958号（本部校区）","name":"杭州江南实验学校（月明校区）","lng":"120.228516","lat":"30.209059","code":"3133000257002"},{"address":"杭州市拱墅区颜三路58号","name":"杭州观成实验学校（观成实验）","lng":"120.180513","lat":"30.316429","code":"3133000797001"},{"address":"浙江省杭州市滨江区扬帆路330号","name":"杭州市奥体实验小学","lng":"120.233956","lat":"30.230169","code":"2133002332001"},{"address":"杭州市滨江区西浦路1453号","name":"杭州市钱江湾小学","lng":"120.140853","lat":"30.180115","code":"2133002349001"},{"address":"杭州市拱墅区顾扬路518号","name":"杭州市育才大城北学校","lng":"120.148372","lat":"30.360833","code":"3133000787001"},{"address":"杭州市拱墅区新西路230号","name":"杭州市观成武林小学","lng":"120.175033","lat":"30.319906","code":"2133002255001"},{"address":"杭州市钱塘区临江街道纬六路881号","name":"杭州钱塘新区临江新城实验学校","lng":"120.60","lat":"30.29","code":"3133000816001"},{"address":"杭州市拱墅区三墩路70号","name":"杭州市永正实验学校","lng":"120.107485","lat":"30.333113","code":"3133000785001"},{"address":"彭埠街道红建街528号","name":"杭州市澎汇小学","lng":"120.244865","lat":"30.296519","code":"2133002235001"},{"address":"杭州市钱塘区下沙街道学源街1618号","name":"杭州钱塘新区幸福河小学","lng":"120.321868","lat":"30.322946","code":"2133002229001"},{"address":"四季青街道太平门直街599号","name":"杭州市钱江新城实验小学","lng":"120.218868","lat":"30.267684","code":"2133002233001"},{"address":"杭州市西湖区竞舟北路68号","name":"杭州市政苑小学","lng":"120.108193","lat":"30.304017","code":"2133002352001"},{"address":"杭州市拱墅区长岳街28号","name":"杭州市长寿桥岳帅小学","lng":"120.188222","lat":"30.299354","code":"2133002325001"},{"address":"杭州市钱塘区义蓬街道义盛社区茂盛路2号","name":"杭州钱塘新区义蓬第一小学","lng":"120.505166","lat":"30.264071","code":"2133005474001"},{"address":"杭州市钱塘区义蓬街道蓬园村9组","name":"杭州钱塘新区义蓬第四小学","lng":"120.476531","lat":"30.275615","code":"2133005480001"},{"address":"杭州市钱塘区义蓬街道春园村12组","name":"杭州钱塘新区义蓬第三小学","lng":"120.517819","lat":"30.346243","code":"2133005477001"},{"address":"杭州市钱塘区义蓬街道头蓬社区通围路2号","name":"杭州钱塘新区义蓬第二小学","lng":"120.504766","lat":"30.32298","code":"2133005475001"},{"address":"杭州市钱塘区河庄街道闸北村21组","name":"杭州钱塘新区新围小学","lng":"120.454173","lat":"30.321595","code":"2133005509001"},{"address":"杭州市钱塘区新湾街道建华村688号","name":"杭州钱塘新区新湾小学","lng":"120.538675","lat":"30.291484","code":"2133005515001"},{"address":"杭州市钱塘区临江街道创建路11号","name":"杭州钱塘新区临江小学","lng":"120.601595","lat":"30.341661","code":"2133005519001"},{"address":"杭州市钱塘区新湾街道创建村11组","name":"杭州钱塘新区宏图小学","lng":"120.554434","lat":"30.310772","code":"2133005526001"},{"address":"杭州市钱塘区河庄街道新和村1组","name":"杭州钱塘新区河庄小学","lng":"120.47537","lat":"30.303459","code":"2133005508001"},{"address":"杭州市钱塘区下沙街道华景街118号","name":"杭州市下沙第一小学","lng":"120.342428","lat":"30.320214","code":"2133005891001"},{"address":"杭州市钱塘区下沙街道福城路199号","name":"杭州市下沙第二小学","lng":"120.339618","lat":"30.334133","code":"2133006160001"},{"address":"杭州市钱塘区白杨街道4号大街612号","name":"杭州市实验外国语学校（小学部）","lng":"120.352253","lat":"30.313798","code":"3433005759002"},{"address":"杭州市钱塘区凌云街66号","name":"杭州市基础教育研究室附属学校","lng":"120.398976","lat":"30.333764","code":"2133000706001"},{"address":"杭州市钱塘区白杨街道江月路9号","name":"杭州钱塘新区云帆小学","lng":"120.391695","lat":"30.336281","code":"2133002149001"},{"address":"杭州市钱塘区下沙街道海通街888号","name":"杭州钱塘新区月雅河小学","lng":"120.320222","lat":"30.308695","code":"2133001272001"},{"address":"杭州市钱塘区白杨街道听涛路１号","name":"杭州钱塘新区学正小学","lng":"120.389375","lat":"30.297458","code":"2133006162001"},{"address":"杭州市钱塘区学林街1500号","name":"杭州钱塘新区学林小学","lng":"120.332447","lat":"30.322448","code":"2133006161001"},{"address":"杭州市钱塘区下沙街道博浪街166号","name":"杭州钱塘新区文思小学","lng":"120.3338","lat":"30.335441","code":"2133001678001"},{"address":"杭州市钱塘区白杨街道27号路218号","name":"杭州钱塘新区文清小学","lng":"120.397056","lat":"30.310308","code":"2133001115001"},{"address":"杭州市钱塘区16号大街123号","name":"杭州钱塘新区听涛小学","lng":"120.383933","lat":"30.288202","code":"2133000870001"},{"address":"杭州市钱塘区下沙街道海通街60号","name":"杭州钱塘新区景苑小学","lng":"120.341276","lat":"30.309754","code":"2133006577001"},{"address":"杭州市钱塘区下沙街道智格路168号","name":"杭州钱塘新区金沙湖实验学校","lng":"120.331739","lat":"30.300826","code":"3133000592001"},{"address":"杭州市钱塘区白杨街道秋潮路177号","name":"杭州钱塘新区观澜小学","lng":"120.373882","lat":"30.279705","code":"2133002193001"},{"address":"杭州市钱塘新区义蓬街道启成路1号","name":"杭州市钱塘区启成学校","lng":"120.498367","lat":"30.320602","code":"3133000745001"},{"address":"杭州市滨江区浦沿街道育华巷102号","name":"浙江省杭州高新实验学校","lng":"120.178183","lat":"30.194174","code":"3133000011001"},{"address":"杭州市滨江区滨和路1799号","name":"浙江省杭州滨兴学校","lng":"120.204988","lat":"30.199535","code":"3133000185001"},{"address":"浙江省杭州市滨江区长河街道双庙路23号","name":"杭州市长河小学","lng":"120.203941","lat":"30.178097","code":"2133001083001"},{"address":"杭州市滨江区西兴街道官河路9号","name":"杭州市西兴实验小学","lng":"120.237307","lat":"30.196332","code":"2133000645001"},{"address":"浙江省杭州市滨江区新月路570号","name":"杭州市闻涛小学","lng":"120.207812","lat":"30.208578","code":"2133002204001"},{"address":"杭州市滨江区东信大道1328号","name":"杭州市钱塘实验小学（本部）","lng":"120.159747","lat":"30.195019","code":"2133001524001"},{"address":"浦沿街道山二村","name":"杭州市浦沿小学教育集团（山二分校）","lng":"120.163848","lat":"30.170764","code":"2133002575002"},{"address":"杭州市滨江区浦沿街道东冠路","name":"杭州市浦沿小学教育集团（浦沿校区）","lng":"120.156443","lat":"30.165979","code":"2133002575001"},{"address":"杭州市滨江区丹枫路520号","name":"杭州市丹枫实验小学","lng":"120.222828","lat":"30.220192","code":"2133001269001"},{"address":"滨江区东流路55号","name":"杭州市春晖小学","lng":"120.226957","lat":"30.190216","code":"2133001937001"},{"address":"滨江区长河街道腾龙路601号","name":"杭州市创意城小学","lng":"120.20353","lat":"30.162949","code":"2133002103001"},{"address":"杭州市滨江区立业路298号","name":"杭州市博文小学","lng":"120.192486","lat":"30.188036","code":"2133000721001"},{"address":"杭州市滨江区滨文路670号","name":"杭州市滨文小学","lng":"120.146193","lat":"30.176455","code":"2133001288001"},{"address":"滨江区平乐街80号","name":"杭州市滨江实验小学","lng":"120.189564","lat":"30.200534","code":"2133001896001"},{"address":"杭州市滨江区浦沿街道至仁街5号","name":"杭州市滨江区滨兰实验学校","lng":"120.171032","lat":"30.166051","code":"3133000546001"},{"address":"杭州市滨江区新联路18号","name":"杭州市滨和小学","lng":"120.232766","lat":"30.205888","code":"2133001518001"},{"address":"滨江区天马路500号","name":"杭州二中白马湖学校","lng":"120.201966","lat":"30.156822","code":"3133000614001"},{"address":"杭州市滨江区浦沿东冠路531号","name":"杭州滨江多思创新学校","lng":"120.165837","lat":"30.170252","code":"3133006022001"},{"address":"杭州市西湖区高技街5号","name":"浙江省教育厅教研室附属小学（翠苑三小）","lng":"120.128385","lat":"30.290282","code":"2133003550002"},{"address":"杭州市西湖区高技街6号","name":"浙江省教育厅教研室附属小学（本部）","lng":"120.127739","lat":"30.292236","code":"2133003550001"},{"address":"浙江省杭州市留下街道杨梅山路","name":"浙江工业大学附属实验学校","lng":"120.06333","lat":"30.239274","code":"3133005123001"},{"address":"杭州市西湖区转塘街道回龙张家55号","name":"杭州市转塘小学（回龙校区）","lng":"120.1019","lat":"30.122362","code":"2133003712002"},{"address":"杭州市西湖区转塘镇象山361号","name":"杭州市转塘小学（象山校区）","lng":"120.090421","lat":"30.159878","code":"2133003712001"},{"address":"杭州市西湖区双浦镇周家埭忖408号","name":"杭州市周浦小学","lng":"120.079843","lat":"30.10544","code":"2133003494001"},{"address":"杭州市西湖区文一西路天河西苑","name":"杭州市之江外语实验学校","lng":"120.11202","lat":"30.296913","code":"2133003717001"},{"address":"浙江省杭州市南山路64号","name":"杭州市长桥小学","lng":"120.159781","lat":"30.235007","code":"2133003729001"},{"address":"杭州市西湖区双浦镇兰溪口村1号","name":"杭州市袁浦小学","lng":"120.127447","lat":"30.120666","code":"2133003498001"},{"address":"杭州市西湖区文二西路698号","name":"杭州市育才外国语学校","lng":"120.151","lat":"30.4747","code":"2133006550001"},{"address":"杭州市西湖区凌波路8号","name":"杭州市育才教育集团（总校）（文溪小学）","lng":"120.062223","lat":"30.286009","code":"2133003713002"},{"address":"杭州市西湖区梦园街188号","name":"杭州市学军小学（之江校区）","lng":"120.076104","lat":"30.166983","code":"2133003523003"},{"address":"杭州市西湖区萍水西街198号","name":"杭州市学军小学（紫金港校区）","lng":"120.101503","lat":"30.307134","code":"2133003523002"},{"address":"杭州市西湖区文二路求智巷6号","name":"杭州市学军小学（求智校区）","lng":"120.150797","lat":"30.287482","code":"2133003523001"},{"address":"浙江省杭州市龙井路67号","name":"杭州市西子湖小学（茅家埠校区）","lng":"120.129084","lat":"30.243396","code":"2133003725002"},{"address":"之江路40号","name":"杭州市西子湖小学（九溪校区）","lng":"120.123436","lat":"30.19283","code":"2133003725001"},{"address":"杭州市西湖区文一西路578号","name":"杭州市西溪实验学校","lng":"120.083746","lat":"30.293629","code":"3133005133001"},{"address":"杭州市西湖区三墩镇紫宣路333号","name":"杭州市西湖小学教育集团（总校）（杭州市紫萱小学）","lng":"120.07653","lat":"30.332835","code":"2133003703003"},{"address":"杭州市西湖区曙光路143号","name":"杭州市西湖小学教育集团（总校）（西湖小学）","lng":"120.137606","lat":"30.25987","code":"2133003703001"},{"address":"杭州市西湖区转塘街道葛衙庄社区","name":"杭州市西湖第一实验学校","lng":"120.054763","lat":"30.187674","code":"3133005132001"},{"address":"杭州市西湖区三墩镇秀里街306号","name":"杭州市文一街小学（秀水校区）","lng":"120.102635","lat":"30.328211","code":"2133003516002"},{"address":"杭州市西湖区保俶北路88号","name":"杭州市文一街小学（文一校区）","lng":"120.148953","lat":"30.293576","code":"2133003516001"},{"address":"杭州市西湖区文三西路491号","name":"杭州市文新小学（文新校区）","lng":"120.099302","lat":"30.278942","code":"2133001287001"},{"address":"杭州市西湖区灵凤街178号","name":"杭州市文三教育集团（总校）（定山小学）","lng":"120.077737","lat":"30.146452","code":"2133003520003"},{"address":"杭州市西湖区竞舟路111号","name":"杭州市文三教育集团（总校）（文苑小学）","lng":"120.111028","lat":"30.285842","code":"2133003520002"},{"address":"杭州市西湖区上宁巷3号","name":"杭州市文三教育集团（总校）（文三街小学）","lng":"120.150675","lat":"30.282867","code":"2133003520001"},{"address":"杭州市西湖区三墩镇嘉仁路499号","name":"杭州市文理小学（本部）","lng":"120.080037","lat":"30.338931","code":"2133001969001"},{"address":"杭州市西湖区莲花街108号","name":"杭州市省府路小学","lng":"120.113817","lat":"30.279304","code":"2133003557001"},{"address":"杭州西湖区三墩镇双桥社区肖家坝68号","name":"杭州市三墩小学（双桥校区）","lng":"120.048085","lat":"30.335371","code":"2133003276002"},{"address":"杭州市西湖区三墩镇振华路28号","name":"杭州市三墩小学（兰里校区）","lng":"120.087646","lat":"30.321775","code":"2133003276001"},{"address":"杭州市西湖区留下街道杨梅山路261号","name":"杭州市求是教育集团（总校）（求是（和家园）小学）","lng":"120.071155","lat":"30.245817","code":"2133003688004"},{"address":"杭州市西湖区文景路330号","name":"杭州市求是教育集团（总校）（求是（之江）二小）","lng":"120.101751","lat":"30.16827","code":"2133003688003"},{"address":"杭州市西湖区五常港路409号","name":"杭州市求是教育集团（总校）（浙大二附小）","lng":"120.072031","lat":"30.308849","code":"2133003688002"},{"address":"杭州市西湖区浙大路18号","name":"杭州市求是教育集团（总校）（浙大附小）","lng":"120.135553","lat":"30.267332","code":"2133003688001"},{"address":"杭州市西湖区文二西路88号","name":"杭州市钱塘外语学校","lng":"120.11817","lat":"30.2897","code":"3133005135001"},{"address":"杭州市西湖区留下大街2号","name":"杭州市留下小学","lng":"120.060938","lat":"30.245088","code":"2133003704001"},{"address":"杭州市西湖区九莲新村55号","name":"杭州市九莲小学","lng":"120.139405","lat":"30.285369","code":"2133003527001"},{"address":"杭州市西湖区三墩镇汇周街100号","name":"杭州市嘉绿苑小学（景汇校区）","lng":"120.074691","lat":"30.354897","code":"2133001084002"},{"address":"杭州市西湖区嘉绿苑西1一1号","name":"杭州市嘉绿苑小学（嘉益校区）","lng":"120.120204","lat":"30.28446","code":"2133001084001"},{"address":"浙江省杭州市西湖区双龙街378号","name":"杭州市行知小学（行知二小）","lng":"120.067843","lat":"30.299817","code":"2133003651002"},{"address":"杭州市西湖区文二路花园西村内","name":"杭州市行知小学（学院路校区）","lng":"120.137043","lat":"30.290255","code":"2133003651001"},{"address":"杭州市西湖区益乐路6-1","name":"杭州市古荡第一小学","lng":"120.12348","lat":"30.280489","code":"2133003497001"},{"address":"杭州市西湖区三墩镇甲来路86号","name":"杭州市大禹路小学（甲来路校区）","lng":"120.073542","lat":"30.345972","code":"2133006551002"},{"address":"杭州市西湖区三墩镇金兰巷2号","name":"杭州市大禹路小学（大禹路校区）","lng":"120.090254","lat":"30.334397","code":"2133006551001"},{"address":"杭州市西湖区竞舟路299号","name":"杭州市翠苑第一小学（文华校区）","lng":"120.10849","lat":"30.296991","code":"2133003532002"},{"address":"杭州市西湖区文一路375号","name":"杭州市翠苑第一小学（翠苑校区）","lng":"120.133573","lat":"30.294113","code":"2133003532001"},{"address":"杭州市西湖区翠苑三区165号","name":"杭州市翠苑第二小学","lng":"120.127738","lat":"30.297563","code":"2133003512001"},{"address":"杭州市西湖区天目山路81号","name":"杭州市保俶塔实验学校","lng":"120.156139","lat":"30.276548","code":"3433000533001"},{"address":"杭州市西湖区竞舟北路189号","name":"杭州市保俶塔申花实验学校","lng":"120.1055","lat":"30.314821","code":"3133000728001"},{"address":"杭州市西湖区文一西路532号","name":"杭州绿城育华学校","lng":"120.091864","lat":"30.297909","code":"2133003719001"},{"address":"杭州市拱墅区建工路88号","name":"浙江省教育科学研究院附属小学","lng":"120.207078","lat":"30.358286","code":"2133004298001"},{"address":"杭州市拱墅区龙腾街501号","name":"浙江省杭州第十四中学附属学校","lng":"120.142985","lat":"30.383311","code":"3133000704001"},{"address":"杭州市拱墅区永固巷871号","name":"华东师范大学附属杭州学校","lng":"120.115746","lat":"30.319346","code":"3133000703001"},{"address":"杭州市拱墅区棠子桥路79号","name":"杭州育才登云小学","lng":"120.126897","lat":"30.310989","code":"2133002058001"},{"address":"杭州市拱墅区苑中路12号","name":"杭州市外语实验小学","lng":"120.164184","lat":"30.311778","code":"2133004242001"},{"address":"杭州市拱墅区广业街299号","name":"杭州市长阳小学","lng":"120.09904","lat":"30.337062","code":"2133000968001"},{"address":"杭州市拱墅区赵伍路288号","name":"杭州市育才京杭小学","lng":"120.143826","lat":"30.308157","code":"2133001359001"},{"address":"杭州市拱墅区星桥街190号","name":"杭州市星澜小学","lng":"120.127232","lat":"30.340733","code":"2133000972001"},{"address":"杭州市拱墅区叶青兜路18-1号","name":"杭州市新华实验小学","lng":"120.16146","lat":"30.287932","code":"2133000987001"},{"address":"杭州市拱墅区蒋家桥街","name":"杭州市文渊小学（新城校区）","lng":"120.153219","lat":"30.372925","code":"2133004576002"},{"address":"杭州市拱墅区隽逸路229号","name":"杭州市文澜小学","lng":"120.168183","lat":"30.333981","code":"2133000967001"},{"address":"杭州市拱墅区风景街222号","name":"杭州市文澜实验学校","lng":"120.141588","lat":"30.32796","code":"2133001673001"},{"address":"杭州市拱墅区月亮路36号","name":"杭州市文津小学","lng":"120.133352","lat":"30.306854","code":"2133000973001"},{"address":"杭州市拱墅区申花路301号","name":"杭州市申花小学","lng":"120.114785","lat":"30.314745","code":"2133000963001"},{"address":"杭州市拱墅区新昌路100号","name":"杭州市人民小学","lng":"120.151699","lat":"30.328702","code":"2133004282001"},{"address":"杭州市拱墅区莫干山路752弄","name":"杭州市莫干山路小学（北站校区）","lng":"120.122206","lat":"30.321867","code":"2133004580001"},{"address":"杭州市拱墅区湖墅南路427号","name":"杭州市卖鱼桥小学（湖墅校区）","lng":"120.152736","lat":"30.298731","code":"2133004573002"},{"address":"杭州市拱墅区古河巷19号","name":"杭州市建新小学","lng":"120.161028","lat":"30.290115","code":"2133004146001"},{"address":"杭州市拱墅区和睦新村15幢1号","name":"杭州市和睦小学","lng":"120.130972","lat":"30.316077","code":"2133004300001"},{"address":"杭州市拱墅区赵伍路111号","name":"杭州市小河小学","lng":"120.138301","lat":"30.313231","code":"2133004238001"},{"address":"杭州市拱墅区永庆路88号","name":"杭州市拱宸桥小学（永庆校区）","lng":"120.149215","lat":"30.334159","code":"2133004299002"},{"address":"杭州市拱墅区夏莲路218号","name":"杭州市福山外国语小学","lng":"120.185194","lat":"30.350061","code":"2133001336001"},{"address":"杭州市拱墅区德苑路96号","name":"杭州市德胜小学教育集团","lng":"120.168286","lat":"30.304268","code":"2133004284001"},{"address":"杭州市拱墅区和睦路79-1号","name":"杭州市大关中学附属小学","lng":"120.146521","lat":"30.305614","code":"2133004293001"},{"address":"杭州市拱墅区大关西四苑22号","name":"杭州市大关苑第一小学","lng":"120.159602","lat":"30.313353","code":"2133004287001"},{"address":"杭州市拱墅区莫干山路206号","name":"杭州市大关小学","lng":"120.153516","lat":"30.292526","code":"2133004304001"},{"address":"杭州市拱墅区青城路9号","name":"杭州市北秀小学","lng":"120.216054","lat":"30.363644","code":"2133004579001"},{"address":"杭州市拱墅区半山路2-1号","name":"杭州市半山实验小学","lng":"120.197266","lat":"30.356589","code":"2133004168001"},{"address":"杭州市丽水路167号","name":"杭州上海世界外国语学校","lng":"120.145864","lat":"30.318983","code":"2133000585001"},{"address":"杭州市拱墅区永固巷9号","name":"杭州锦绣·育才中学附属学校","lng":"120.12792","lat":"30.309738","code":"3133005400001"},{"address":"笕桥街道德学巷1号","name":"浙江师范大学附属杭州笕文实验学校","lng":"120.21896","lat":"30.307965","code":"3133000755001"},{"address":"闸弄口街道机场路里街39号","name":"浙江省教育科学研究院附属实验学校","lng":"120.195233","lat":"30.285883","code":"3133005878001"},{"address":"凯旋街道凯旋路258号","name":"浙江大学华家池子弟小学","lng":"120.201869","lat":"30.272574","code":"2133006190001"},{"address":"笕桥街道浜河村桥头弄100号","name":"杭州天成教育集团（浜河校区）","lng":"120.245197","lat":"30.319828","code":"3133005844001"},{"address":"彭埠街道莲花桥路2号","name":"杭州市夏衍小学","lng":"120.234738","lat":"30.298611","code":"2133006268001"},{"address":"彭埠街道元宝塘南巷1号","name":"杭州市夏衍第二小学","lng":"120.232496","lat":"30.292657","code":"2133002048001"},{"address":"小学部：闸弄口街道三里亭董家桥路58号          初中部：闸弄口街道三里亭顾家畈路20号","name":"杭州市天杭实验学校（桂苑校区）","lng":"120.199956","lat":"30.295778","code":"3133001926002"},{"address":"四季青街道景昙路98号","name":"杭州市四季青小学","lng":"120.211028","lat":"30.271007","code":"2133005348001"},{"address":"四季青街道凤起东路916号","name":"杭州市钱江外国语实验学校","lng":"120.237621","lat":"30.277238","code":"2133001510001"},{"address":"闸弄口街道万家花园欣和苑3幢","name":"杭州市濮家小学（杭州濮家小学教育集团）（万家校区）","lng":"120.209105","lat":"30.290409","code":"2133006025002"},{"address":"闸弄口街道濮家井19号","name":"杭州市濮家小学（杭州濮家小学教育集团）（濮家校区）","lng":"120.202983","lat":"30.288164","code":"2133006025001"},{"address":"彭埠街道杨柳郡园三区","name":"杭州市澎致小学","lng":"120.24387","lat":"30.308982","code":"2133001694001"},{"address":"彭埠街道澎雅弄9号","name":"杭州市澎雅小学","lng":"120.253127","lat":"30.306794","code":"2133001337001"},{"address":"彭埠街道九州路355号","name":"杭州市澎博小学","lng":"120.252028","lat":"30.319797","code":"2133005364001"},{"address":"凯旋街道太平门直街185号","name":"杭州市南肖埠小学","lng":"120.204253","lat":"30.266404","code":"2133003269001"},{"address":"凯旋街道景芳二区35幢","name":"杭州市茅以升实验学校","lng":"120.208732","lat":"30.274463","code":"2133003522001"},{"address":"凯旋街道景芳六区34幢","name":"杭州市景华小学","lng":"120.216759","lat":"30.278866","code":"2133000805001"},{"address":"四季青街道景芳路1号","name":"杭州市景和小学","lng":"120.224948","lat":"30.275263","code":"2133001502001"},{"address":"四季青街道百安路1号","name":"杭州市江锦小学","lng":"120.216916","lat":"30.260719","code":"2133006569001"},{"address":"笕桥街道全冯弄58号","name":"杭州市笕正小学","lng":"120.216053","lat":"30.313924","code":"2133001684001"},{"address":"笕桥街道机场路228号","name":"杭州市笕桥小学","lng":"120.22581","lat":"30.319768","code":"2133003534001"},{"address":"笕桥街道明月桥路399号","name":"杭州市笕桥花园小学","lng":"120.225023","lat":"30.308128","code":"2133001360001"},{"address":"九堡街道商杭街6号","name":"杭州市东城第二实验学校","lng":"120.296752","lat":"30.319316","code":"3133000707001"},{"address":"丁兰街道区杭玻街100号","name":"杭州市丁信小学（童园校区）","lng":"120.223703","lat":"30.35075","code":"2133001025001"},{"address":"丁兰街道丁桥路2号-30","name":"杭州市丁兰第三小学","lng":"120.231952","lat":"30.352715","code":"2133002075001"},{"address":"丁兰街道环丁路68号","name":"杭州市丁兰第二小学","lng":"120.239172","lat":"30.353309","code":"2133001354001"},{"address":"丁兰街道天龙路55号","name":"杭州市丁蕙第二小学（本部）","lng":"120.245489","lat":"30.374825","code":"2133001350001"},{"address":"丁兰街道同港路128号","name":"杭州市丁荷小学（枣园校区）","lng":"120.229666","lat":"30.36341","code":"2133001080002"},{"address":"彭埠街道杨柳郡园三区","name":"杭州市采荷实验学校（小学部）","lng":"120.243598","lat":"30.307805","code":"3133001610001"},{"address":"采荷街道凯旋路58-1号","name":"杭州市采荷第二小学","lng":"120.197353","lat":"30.255203","code":"2133003266001"},{"address":"采荷街道观音塘小区下车路38-1","name":"杭州市滨江第一小学","lng":"120.21038","lat":"30.251421","code":"2133003114001"},{"address":"丁兰街道环丁路925号","name":"杭州师范大学附属丁兰实验学校（兰园校区）","lng":"120.24619","lat":"30.360633","code":"2133004667002"},{"address":"九堡街道金禾街158号","name":"杭州师范大学东城小学（艺苑校区）","lng":"120.283333","lat":"30.3134","code":"2133005675001"},{"address":"小学部：九堡街道胜康路358号 初中部：九堡街道九环路42号","name":"杭州师范大学东城实验学校（东盛校区）","lng":"120.259871","lat":"30.33023","code":"3133005864002"},{"address":"小学部：采荷街道观音塘路105号 初中部：凯旋街道景芳五区景湘路8号","name":"杭州国泰外语艺术学校（观音塘校区）","lng":"120.207633","lat":"30.247563","code":"3433000157003"},{"address":"凯旋街道景芳四区24号","name":"杭州春芽实验学校","lng":"120.211506","lat":"30.27824","code":"2133004626001"},{"address":"采荷街道经纬路1号","name":"杭州采荷第三小学","lng":"120.209463","lat":"30.258972","code":"2133006267001"},{"address":"杭州市拱墅区孩儿巷234号","name":"杭州市长寿桥小学（长寿校区）","lng":"120.169074","lat":"30.268466","code":"2133002541001"},{"address":"杭州市拱墅区再行路211号","name":"杭州市长青小学（长青校区）","lng":"120.177156","lat":"30.310859","code":"2133002716001"},{"address":"杭州市拱墅区体育场路永康苑23号","name":"杭州市永天实验小学","lng":"120.189454","lat":"30.277081","code":"2133002698001"},{"address":"杭州市拱墅区绍兴路现代名苑4栋","name":"杭州市现代实验小学（现代城校区）","lng":"120.180894","lat":"30.294463","code":"2133002584001"},{"address":"杭州市拱墅区十五家园79号","name":"杭州市文龙巷小学","lng":"120.181724","lat":"30.272435","code":"2133002641001"},{"address":"杭州市拱墅区天水巷100号","name":"杭州市天水小学","lng":"120.173911","lat":"30.277824","code":"2133002570001"},{"address":"杭州市拱墅区东新园孚信苑11号","name":"杭州市胜蓝实验小学（东新园校区）","lng":"120.185409","lat":"30.316977","code":"2133001479001"},{"address":"杭州市拱墅区康宁街36号","name":"杭州市求知小学（求知校区）","lng":"120.204496","lat":"30.339403","code":"2133002707001"},{"address":"杭州市拱墅区东清巷66号","name":"杭州市青蓝小学（青蓝校区）","lng":"120.181932","lat":"30.266605","code":"2133002657002"},{"address":"杭州市拱墅区杭玻街529号","name":"杭州市青蓝青华实验小学","lng":"120.212916","lat":"30.347482","code":"2133001042001"},{"address":"杭州市拱墅区北景园回龙路266号","name":"杭州市景成实验学校","lng":"120.193954","lat":"30.345861","code":"3133002549001"},{"address":"杭州市京都苑16号","name":"杭州市京都小学（艮山校区）","lng":"120.184232","lat":"30.282307","code":"2133002660002"},{"address":"杭州市拱墅区古河巷72号","name":"杭州市江心岛小学（北校区）","lng":"120.159622","lat":"30.294035","code":"2133002592001"},{"address":"杭州市拱墅区东园巷","name":"杭州市东园小学（东园校区）","lng":"120.188607","lat":"30.274497","code":"2133002658001"},{"address":"杭州市拱墅区德胜东村50幢","name":"杭州市德天实验小学","lng":"120.178508","lat":"30.304195","code":"2133002704001"},{"address":"杭州市拱墅区回龙庙前50号","name":"杭州市刀茅巷小学","lng":"120.190654","lat":"30.268542","code":"2133002690001"},{"address":"杭州市拱墅区三里亭路155号","name":"杭州市大成实验学校","lng":"120.196242","lat":"30.305081","code":"3133002447001"},{"address":"杭州市拱墅区朝晖一区50幢","name":"杭州市朝晖实验小学（一校区）","lng":"120.171601","lat":"30.289031","code":"2133002577001"},{"address":"杭州市安吉路19号","name":"杭州市安吉路实验学校（安吉校部）","lng":"120.165089","lat":"30.272251","code":"3133002443001"},{"address":"杭州市万寿亭街9号","name":"杭州长江实验小学（国大校区）","lng":"120.167858","lat":"30.275344","code":"2133002563002"},{"address":"小营街道清吟街128号","name":"杭州新世纪外国语学校（湖畔校区）","lng":"120.179617","lat":"30.26045","code":"3133006035001"},{"address":"紫阳街道中山南路太庙巷7号","name":"杭州市紫阳小学","lng":"120.1763","lat":"30.238014","code":"2133000563001"},{"address":"小营街道建国中路锅子弄37号","name":"杭州市时代小学","lng":"120.188021","lat":"30.25421","code":"2133000568001"},{"address":"紫阳街道甬江路80号","name":"杭州市胜利实验学校","lng":"120.195844","lat":"30.231063","code":"2133000851001"},{"address":"紫阳街道候潮路6号","name":"杭州市金都天长小学","lng":"120.18301","lat":"30.232547","code":"2133006531001"},{"address":"望江街道近江南路1号","name":"杭州市崇文实验学校","lng":"120.208313","lat":"30.237324","code":"2133000554001"},{"address":"清波街道四宜路180号","name":"杭州师范大学第一附属小学","lng":"120.169362","lat":"30.244336","code":"2133000591001"},{"address":"杭州西湖区双浦镇姚家坞村","name":"杭州西子实验学校","lng":"120.063531","lat":"30.133874","code":"3433000536001"},{"address":"杭州市钱塘区河庄街道永丰路1158号","name":"杭州钱塘新区钱江小学","lng":"120.476067","lat":"30.324585","code":"2133000067001"},{"address":"杭州市钱塘区前进街道教工路1号","name":"杭州钱塘新区前进小学","lng":"120.593587","lat":"30.325605","code":"2133000263001"},{"address":"杭州市钱塘区白杨街道24号大街498号","name":"杭州钱塘新区江湾小学","lng":"120.373038","lat":"30.275757","code":"2133000161001"},{"address":"滨江区浦沿街道东冠社区431号","name":"杭州市东冠小学","lng":"120.172712","lat":"30.172322","code":"2133000024001"},{"address":"杭州市西湖区莲紫路8号","name":"杭州市星洲小学（星洲二小）","lng":"120.068568","lat":"30.337114","code":"2133000328002"},{"address":"杭州市西湖区紫荆花路288号","name":"杭州市星洲小学（星洲校区）","lng":"120.099844","lat":"30.295472","code":"2133000328001"},{"address":"杭州市西湖区蒋村街道溪云支巷1号","name":"杭州市竞舟小学（竞舟二小）","lng":"120.06782","lat":"30.30532","code":"2133000225002"},{"address":"杭州市西湖区竞舟路221号","name":"杭州市竞舟小学（竞舟校区）","lng":"120.109711","lat":"30.290983","code":"2133000225001"},{"address":"笕桥街道机场路110号","name":"杭州市笕新小学","lng":"120.210605","lat":"30.303642","code":"2133000101001"},{"address":"九堡街道杭乔路38号","name":"杭州师范大学东城第二小学","lng":"120.286208","lat":"30.304581","code":"2133000097001"},{"address":"望江街道徐家埠路50号","name":"杭州天地实验小学","lng":"120.202285","lat":"30.242668","code":"2133000543001"},{"address":"望江街道海潮路51号","name":"杭州市勇进实验学校","lng":"120.190367","lat":"30.241461","code":"2133000528002"},{"address":"小营街道姚园寺巷灰团巷11号","name":"杭州市饮马井巷小学","lng":"120.184282","lat":"30.245089","code":"2133000553001"},{"address":"清波街道劳动路95号","name":"杭州市娃哈哈小学","lng":"120.168374","lat":"30.248536","code":"2133000544001"},{"address":"湖滨街道东坡路94——乙号","name":"杭州市天长小学（东坡路校区）","lng":"120.1688","lat":"30.263517","code":"2133000517002"},{"address":"紫阳街道吟潮路350号","name":"杭州市胜利小学（新城校区）","lng":"120.19029","lat":"30.232518","code":"2133000524002"},{"address":"望江街道富春路199号","name":"杭州市胜利小学（钱塘校区）","lng":"120.207844","lat":"30.242173","code":"2133000524001"},{"address":"南星街道复兴南苑12号","name":"杭州市胜利山南小学","lng":"120.17381","lat":"30.215365","code":"2133000526001"},{"address":"小营街道皮市巷99号","name":"杭州市回族穆兴小学（小营校区）","lng":"120.181442","lat":"30.259759","code":"2133000534002"},{"address":"清波街道后市街16号","name":"杭州市高银巷小学","lng":"120.175963","lat":"30.246944","code":"2133000504001"}]